{
    "bsbs": [
        {
            "bsb": "082001",
            "bsbLabel": "082-001",
            "bank": "NAB",
            "name": "NAB on George",
            "location": "Ground Floor 333 George St",
            "city": "Sydney",
            "state": "NSW",
            "postcode": "2000",
            "paymentSystems": [
                "paper",
                "electronic",
                "high value"
            ]
        },
        {
            "bsb": "082003",
            "bsbLabel": "082-003",
            "bank": "NAB",
            "name": "Broker Marketing",
            "location": "Level 6 50 Miller St",
            "city": "North Sydney",
            "state": "NSW",
            "postcode": "2060",
            "paymentSystems": [
                "paper",
                "electronic",
                "high value"
            ]
        },
        {
            "bsb": "082004",
            "bsbLabel": "082-004",
            "bank": "NAB",
            "name": "CT 2055 Capital Office Private Bnkg",
            "location": "Lvl 24 MLC Ctr 19-21 Martin Place",
            "city": "Sydney",
            "state": "NSW",
            "postcode": "2000",
            "paymentSystems": [
                "paper",
                "electronic"
            ]
        },
        {
            "bsb": "082005",
            "bsbLabel": "082-005",
            "bank": "NAB",
            "name": "nabCorp NSW 2005",
            "location": "Level 6 2 Carrington St",
            "city": "Sydney",
            "state": "NSW",
            "postcode": "2000",
            "paymentSystems": [
                "paper",
                "electronic",
                "high value"
            ]
        },
        {
            "bsb": "082008",
            "bsbLabel": "082-008",
            "bank": "NAB",
            "name": "PB Ops 5",
            "location": "Lvl 1 B 1 Homebush Bay Drv",
            "city": "Rhodes",
            "state": "NSW",
            "postcode": "2138",
            "paymentSystems": [
                "paper",
                "electronic",
                "high value"
            ]
        },
        {
            "bsb": "082009",
            "bsbLabel": "082-009",
            "bank": "NAB",
            "name": "Settlements NSW/ACT",
            "location": "Lvl 5 C 1 Homebush Bay Drv",
            "city": "Rhodes",
            "state": "NSW",
            "postcode": "2138",
            "paymentSystems": [
                "paper",
                "electronic",
                "high value"
            ]
        }
    ]
}